[
    {
    "id": 987654321,
    "countryName": "China",
    "countryCode": "CN",
    "cityName": "Shenzhen",
    "latitude": 22.5431,
    "longitude": 114.0579,
    "startDate": "2025-07-19",
    "endDate": "2025-07-20",
    "visitedBy": "Don"
    },
    {
    "id": 123456789,
    "countryName": "China",
    "countryCode": "CN",
    "cityName": "Beijing",
    "latitude": 39.9042,
    "longitude": 116.4074,
    "startDate": "2025-07-25",
    "endDate": "2025-07-29",
    "visitedBy": "Isaac"
    },
    {
    "id": 234567890,
    "countryName": "China",
    "countryCode": "CN",
    "cityName": "Langfang",
    "latitude": 39.5399,
    "longitude": 116.6837,
    "startDate": "2025-07-30",
    "endDate": "2025-07-30",
    "visitedBy": "Isaac"
    },
    {
    "id": 345678901,
    "countryName": "China",
    "countryCode": "CN",
    "cityName": "Xi'an",
    "latitude": 34.3416,
    "longitude": 108.9398,
    "startDate": "2025-08-01",
    "endDate": "2025-08-02",
    "visitedBy": "Isaac"
    },
    {
    "id": 456789012,
    "countryName": "China",
    "countryCode": "CN",
    "cityName": "Shenzhen",
    "latitude": 22.5431,
    "longitude": 114.0579,
    "startDate": "2025-08-03",
    "endDate": "2025-08-03",
    "visitedBy": "Isaac"
    },
    {
    "id": 567890123,
    "countryName": "China",
    "countryCode": "CN",
    "cityName": "Chongqing",
    "latitude": 29.4316,
    "longitude": 106.9123,
    "startDate": "2025-08-01",
    "endDate": "2025-08-02",
    "visitedBy": "Don"
    },
    {
    "id": 678901234,
    "countryName": "China",
    "countryCode": "CN",
    "cityName": "Wuhan",
    "latitude": 30.5928,
    "longitude": 114.3055,
    "startDate": "2025-08-05",
    "endDate": "2025-08-06",
    "visitedBy": "Don"
    },
    {
    "id": 789012345,
    "countryName": "Japan",
    "countryCode": "JP",
    "cityName": "Tokyo",
    "latitude": 35.6895,
    "longitude": 139.6917,
    "startDate": "2025-08-02",
    "endDate": "2025-08-16",
    "visitedBy": "Nathan"
    },
    {
    "id": 890123456,
    "countryName": "Japan",
    "countryCode": "JP",
    "cityName": "Osaka",
    "latitude": 34.6937,
    "longitude": 135.5023,
    "startDate": "2025-07-25",
    "endDate": "2025-07-29",
    "visitedBy": "Nathan"
    },
    {
    "id": 901234567,
    "countryName": "Italy",
    "countryCode": "IT",
    "cityName": "Fiumicino",
    "latitude": 41.7675,
    "longitude": 12.2329,
    "startDate": "2025-08-18",
    "endDate": "2025-08-18",
    "visitedBy": "Isaac"
    },
    {
    "id": 112233445,
    "countryName": "Italy",
    "countryCode": "IT",
    "cityName": "Rome",
    "latitude": 41.9028,
    "longitude": 12.4964,
    "startDate": "2025-08-18",
    "endDate": "2025-08-19",
    "visitedBy": "Isaac"
    },
    {
    "id": 334455667,
    "countryName": "Vatican City",
    "countryCode": "VA",
    "cityName": "Vatican City",
    "latitude": 41.9029,
    "longitude": 12.4534,
    "startDate": "2025-08-20",
    "endDate": "2025-08-20",
    "visitedBy": "Isaac"
    },
    {
    "id": 556677889,
    "countryName": "Italy",
    "countryCode": "IT",
    "cityName": "Florence",
    "latitude": 43.7696,
    "longitude": 11.2558,
    "startDate": "2025-08-20",
    "endDate": "2025-08-22",
    "visitedBy": "Isaac"
    },
    {
    "id": 778899001,
    "countryName": "Italy",
    "countryCode": "IT",
    "cityName": "Siena",
    "latitude": 43.3186,
    "longitude": 11.3307,
    "startDate": "2025-08-21",
    "endDate": "2025-08-21",
    "visitedBy": "Isaac"
    },
    {
    "id": 990011223,
    "countryName": "Italy",
    "countryCode": "IT",
    "cityName": "Pisa",
    "latitude": 43.7228,
    "longitude": 10.4017,
    "startDate": "2025-08-21",
    "endDate": "2025-08-21",
    "visitedBy": "Isaac"
    },
    {
    "id": 223344556,
    "countryName": "Italy",
    "countryCode": "IT",
    "cityName": "San Gimignano",
    "latitude": 43.4676,
    "longitude": 11.0436,
    "startDate": "2025-08-21",
    "endDate": "2025-08-21",
    "visitedBy": "Isaac"
    },
    {
    "id": 445566778,
    "countryName": "United Kingdom",
    "countryCode": "GB",
    "cityName": "London",
    "latitude": 51.5074,
    "longitude": -0.1278,
    "startDate": "2025-08-22",
    "endDate": "2025-08-24",
    "visitedBy": "Isaac"
    }
    ]